# Configuration for Cloud Service Providers (CSPs)
# This file is used to define the CSPs and their regions.

# The file is in YAML format and contains the following fields:
# cloud: Top level key
#   <csp>: Name of the CSP
#     description: Description of the CSP
#     driver: Name of the driver library file (a prepared CB-Spider Driver)
#     link: 
#     -URLs to the official documentation of the CSP
#     region: List of regions
#       <region>:
#         description: Description of the region
#         location: Location details of the region
#           display: Display name
#           latitude: Latitude
#           longitude: Longitude
#         zone: List of availability zones in the region
#           <zone>:
#           - <ID/Name of the availability zon>

# Note: Special regions not supporting VM provisioning are disabled. Enable them by removing the comment.

cloud:
  alibaba:
    description: Alibaba Cloud
    driver: alibaba-driver-v1.0.so
    link:
    - https://www.alibabacloud.com/help/en/ecs/product-overview/regions-and-zones
    - https://www.alibabacloud.com/help/en/cloud-migration-guide-for-beginners/latest/regions-and-zones
    region:
      ap-northeast-1:
        description: Japan (Tokyo)
        location:
          display: Japan (Tokyo)
          latitude: 35.41
          longitude: 139.42
        zone:
        - ap-northeast-1a
        - ap-northeast-1b
        - ap-northeast-1c
      ap-northeast-2:
        description: South Korea (Seoul)
        location:
          display: South Korea (Seoul)
          latitude: 37.36
          longitude: 126.78
        zone:
        - ap-northeast-2a
        - ap-northeast-2b
      ap-south-1:
        description: Mumbai
        location:
          display: India (Mumbai)
          latitude: 19.08
          longitude: 72.88
        zone:
        - ap-south-1a
        - ap-south-1b
      ap-southeast-1:
        description: Singapore
        location:
          display: Singapore
          latitude: 1.37
          longitude: 103.8
        zone:
        - ap-southeast-1a
        - ap-southeast-1b
        - ap-southeast-1c
      ap-southeast-2:
        description: Australia (Sydney)
        location:
          display: Australia (Sydney)
          latitude: -33.86
          longitude: 151.2
        zone:
        - ap-southeast-2a
        - ap-southeast-2b
      ap-southeast-3:
        description: Malaysia (Kuala Lumpur)
        location:
          display: Malaysia (Kuala Lumpur)
          latitude: 3.1408
          longitude: 101.6932
        zone:
        - ap-southeast-3a
        - ap-southeast-3b
        - ap-southeast-3c
      ap-southeast-5:
        description: Indonesia (Jakarta)
        location:
          display: Indonesia (Jakarta)
          latitude: -6.205
          longitude: 106.816
        zone:
        - ap-southeast-5a
        - ap-southeast-5b
        - ap-southeast-5c
      cn-beijing:
        description: China (Beijing)
        location:
          display: China (Beijing)
          latitude: 39.5427
          longitude: 116.235
        zone:
        - cn-beijing-a
        - cn-beijing-b
        - cn-beijing-c
        - cn-beijing-d
        - cn-beijing-e
        - cn-beijing-f
        - cn-beijing-g
        - cn-beijing-h
        - cn-beijing-i
        - cn-beijing-j
        - cn-beijing-k
        - cn-beijing-l
      cn-chengdu:
        description: China (Chengdu)
        location:
          display: China (Chengdu)
          latitude: 30.657
          longitude: 104.08
        zone:
        - cn-chengdu-a
        - cn-chengdu-b
      cn-guangzhou:
        description: China (Guangzhou)
        location:
          display: China (Guangzhou)
          latitude: 23.1292
          longitude: 113.3288
        zone:
        - cn-guangzhou-a
        - cn-guangzhou-b
      cn-hangzhou:
        description: China (Hangzhou)
        location:
          display: China (Hangzhou)
          latitude: 30.25
          longitude: 120.1666
        zone:
        - cn-hangzhou-b
        - cn-hangzhou-e
        - cn-hangzhou-f
        - cn-hangzhou-g
        - cn-hangzhou-h
        - cn-hangzhou-i
        - cn-hangzhou-j
        - cn-hangzhou-k
      cn-heyuan:
        description: China (Heyuan)
        location:
          display: China (Heyuan)
          latitude: 23.7333
          longitude: 114.683
        zone:
        - cn-heyuan-a
        - cn-heyuan-b
      cn-hongkong:
        description: China (Hong Kong)
        location:
          display: China (Hong Kong)
          latitude: 22.4464
          longitude: 114.5095
        zone:
        - cn-hongkong-b
        - cn-hongkong-c
        - cn-hongkong-d
      cn-huhehaote:
        description: China (Huhehaote)
        location:
          display: China (Hohhot)
          latitude: 40.5046
          longitude: 111.4358
        zone:
        - cn-huhehaote-a
        - cn-huhehaote-b
      cn-qingdao:
        description: China (Qingdao)
        location:
          display: China (Qingdao)
          latitude: 36.3
          longitude: 120.22
        zone:
        - cn-qingdao-b
        - cn-qingdao-c
      cn-shanghai:
        description: China (Shanghai)
        location:
          display: China (Shanghai)
          latitude: 31.224
          longitude: 121.4691
        zone:
        - cn-shanghai-a
        - cn-shanghai-b
        - cn-shanghai-c
        - cn-shanghai-d
        - cn-shanghai-e
        - cn-shanghai-f
        - cn-shanghai-g
        - cn-shanghai-k
        - cn-shanghai-l
        - cn-shanghai-m
        - cn-shanghai-n
        - cn-shanghai-o
      cn-shenzhen:
        description: China (Shenzhen)
        location:
          display: China (Shenzhen)
          latitude: 22.5428
          longitude: 114.0629
        zone:
        - cn-shenzhen-a
        - cn-shenzhen-b
        - cn-shenzhen-c
        - cn-shenzhen-d
        - cn-shenzhen-e
        - cn-shenzhen-f
      cn-wulanchabu:
        description: China (Ulanqab)
        location:
          display: China (Ulanqab)
          latitude: 40.9937
          longitude: 113.1333
        zone:
        - cn-wulanchabu-a
        - cn-wulanchabu-b
        - cn-wulanchabu-c
      cn-zhangjiakou:
        description: China (Zhangjiakou)
        location:
          display: China (Zhangjiakou)
          latitude: 40.4836
          longitude: 114.5245
        zone:
        - cn-zhangjiakou-a
        - cn-zhangjiakou-b
        - cn-zhangjiakou-c
      eu-central-1:
        description: Germany (Frankfurt)
        location:
          display: Germany (Frankfurt)
          latitude: 50.0
          longitude: 8.0
        zone:
        - eu-central-1a
        - eu-central-1b
        - eu-central-1c
      eu-west-1:
        description: UK (London)
        location:
          display: UK (London)
          latitude: 53.0
          longitude: -8.0
        zone:
        - eu-west-1a
        - eu-west-1b
      me-east-1:
        description: UAE (Dubai)
        location:
          display: UAE (Dubai)
          latitude: 25.277
          longitude: 55.2962
        zone:
        - me-east-1a
      us-east-1:
        description: US (Virginia)
        location:
          display: USA (Virginia)
          latitude: 38.13
          longitude: -78.45
        zone:
        - us-east-1a
        - us-east-1b
      us-west-1:
        description: US (Silicon Valley)
        location:
          display: US (Silicon Valley)
          latitude: 37.35
          longitude: -121.96
        zone:
        - us-west-1a
        - us-west-1b
      me-central-1:
        description: Middle East (UAE)
        location:
          display: UAE
          latitude: 24.0002488
          longitude: 53.9994829
        zone:
        - me-central-1a
        - me-central-1b
      ap-southeast-7:
        description: Thailand (Bangkok)
        location:
          display: Thailand (Bangkok)
          latitude: 13.7524938
          longitude: 100.4935089
        zone:
        - ap-southeast-7a
        - ap-southeast-7b
      cn-nanjing:
        description: China (Nanjing - Local Region)
        location:
          display: China (Nanjing - Local Region)
          latitude: 32.0438284
          longitude: 118.7788631
        zone:
        - cn-nanjing-a
      cn-fuzhou:
        description: China (Fuzhou - Local Region)
        location:
          display: China (Fuzhou - Local Region)
          latitude: 26.0774954
          longitude: 119.2918215
        zone:
        - cn-fuzhou-a
      ap-southeast-6:
        description: Philippines (Manila)
        location:
          display: Philippines (Manila)
          latitude: 14.5906346
          longitude: 120.9799964
        zone:
        - ap-southeast-6a
      cn-wuhan-lr:
        description: China (Wuhan - Local Region)
        location:
          display: China (Wuhan - Local Region)
          latitude: 30.5951051
          longitude: 114.2999353
        zone:
        - cn-wuhan-lr-a
      na-south-1:
        desc: Mexico
        location:
          display: Mexico City, Mexico
          latitude: 19.4326
          longitude: -99.1332
        zone:
        - na-south-1a
  aws:
    description: Amazon Web Services
    driver: aws-driver-v1.0.so
    link:
    - https://aws.amazon.com/about-aws/global-infrastructure/
    - https://docs.aws.amazon.com/AWSEC2/latest/UserGuide/using-regions-availability-zones.html
    region:
      af-south-1:
        description: Africa (Cape Town)
        location:
          display: Africa (Cape Town)
          latitude: -33.9
          longitude: 18.5
        zone:
        - af-south-1a
        - af-south-1b
        - af-south-1c
      ap-east-1:
        description: Asia Pacific (Hong Kong)
        location:
          display: Asia Pacific (Hong Kong)
          latitude: 22.2603
          longitude: 114.1803
        zone:
        - ap-east-1a
        - ap-east-1b
        - ap-east-1c
      ap-northeast-1:
        description: Asia Pacific (Tokyo)
        location:
          display: Japan (Tokyo)
          latitude: 35.41
          longitude: 139.42
        zone:
        - ap-northeast-1a
        - ap-northeast-1c
        - ap-northeast-1d
      ap-northeast-2:
        description: Asia Pacific (Seoul)
        location:
          display: South Korea (Seoul)
          latitude: 37.36
          longitude: 126.78
        zone:
        - ap-northeast-2a
        - ap-northeast-2b
        - ap-northeast-2c
        - ap-northeast-2d
      ap-northeast-3:
        description: Asia Pacific (Osaka)
        location:
          display: Asia Pacific (Osaka-Local)
          latitude: 34.38
          longitude: 131.7
        zone:
        - ap-northeast-3a
        - ap-northeast-3b
        - ap-northeast-3c
      ap-south-1:
        description: Asia Pacific (Mumbai)
        location:
          display: India (Mumbai)
          latitude: 19.08
          longitude: 72.88
        zone:
        - ap-south-1a
        - ap-south-1b
        - ap-south-1c
      ap-southeast-1:
        description: Asia Pacific (Singapore)
        location:
          display: Singapore
          latitude: 1.37
          longitude: 103.8
        zone:
        - ap-southeast-1a
        - ap-southeast-1b
        - ap-southeast-1c
      ap-southeast-2:
        description: Asia Pacific (Sydney)
        location:
          display: Australia (Sydney)
          latitude: -33.86
          longitude: 151.2
        zone:
        - ap-southeast-2a
        - ap-southeast-2b
        - ap-southeast-2c
      ca-central-1:
        description: Canada (Central)
        location:
          display: Canada Central
          latitude: 45.5
          longitude: -73.6
        zone:
        - ca-central-1a
        - ca-central-1b
        - ca-central-1d
      eu-central-1:
        description: Europe (Frankfurt)
        location:
          display: Germany (Frankfurt)
          latitude: 50.0
          longitude: 8.0
        zone:
        - eu-central-1a
        - eu-central-1b
        - eu-central-1c
      eu-north-1:
        description: Europe (Stockholm)
        location:
          display: Europe (Stockholm)
          latitude: 64.6
          longitude: 14.2
        zone:
        - eu-north-1a
        - eu-north-1b
        - eu-north-1c
      eu-south-1:
        description: Europe (Milan)
        location:
          display: Europe (Milan)
          latitude: 45.4
          longitude: 9.1
        zone:
        - eu-south-1a
        - eu-south-1b
        - eu-south-1c
      eu-west-1:
        description: Europe (Ireland)
        location:
          display: Ireland
          latitude: 53.0
          longitude: -8.0
        zone:
        - eu-west-1a
        - eu-west-1b
        - eu-west-1c
      eu-west-2:
        description: Europe (London)
        location:
          display: UK (London)
          latitude: 51.0
          longitude: -0.1
        zone:
        - eu-west-2a
        - eu-west-2b
        - eu-west-2c
      eu-west-3:
        description: Europe (Paris)
        location:
          display: Paris
          latitude: 48.86
          longitude: 2.35
        zone:
        - eu-west-3a
        - eu-west-3b
        - eu-west-3c
      me-south-1:
        description: Middle East (Bahrain)
        location:
          display: Middle East (Bahrain)
          latitude: 25.0
          longitude: 49.6
        zone:
        - me-south-1a
        - me-south-1b
        - me-south-1c
      sa-east-1:
        description: South America (Sao Paulo)
        location:
          display: Brazil (Sao Paulo)
          latitude: -23.34
          longitude: -46.38
        zone:
        - sa-east-1a
        - sa-east-1b
        - sa-east-1c
      us-east-1:
        description: US East (N. Virginia)
        location:
          display: US East (N. Virginia)
          latitude: 38.13
          longitude: -78.45
        zone:
        - us-east-1a
        - us-east-1b
        - us-east-1c
        - us-east-1d
        - us-east-1e
        - us-east-1f
      us-east-2:
        description: US East (Ohio)
        location:
          display: USA (Ohio)
          latitude: 39.96
          longitude: -83.0
        zone:
        - us-east-2a
        - us-east-2b
        - us-east-2c
      us-west-1:
        description: US West (N. California)
        location:
          display: California
          latitude: 37.35
          longitude: -121.96
        zone:
        - us-west-1a
        - us-west-1b
      us-west-2:
        description: US West (Oregon)
        location:
          display: Oregon
          latitude: 46.15
          longitude: -123.88
        zone:
        - us-west-2a
        - us-west-2b
        - us-west-2c
        - us-west-2d
      ap-south-2:
        description: Asia Pacific (Hyderabad)
        location:
          display: Hyderabad
          latitude: 17.360589
          longitude: 78.4740613
        zone:
        - ap-south-2a
        - ap-south-2b
        - ap-south-2c
      eu-central-2:
        description: Europe (Zurich)
        location:
          display: Zurich
          latitude: 47.3744489
          longitude: 8.5410422
        zone:
        - eu-central-2a
        - eu-central-2b
        - eu-central-2c
      il-central-1:
        description: Israel (Tel Aviv)
        location:
          display: Tel Aviv
          latitude: 32.0852997
          longitude: 34.7818064
        zone:
        - il-central-1a
        - il-central-1b
        - il-central-1c
      ap-southeast-4:
        description: Asia Pacific (Melbourne)
        location:
          display: Melbourne
          latitude: -37.8142454
          longitude: 144.9631732
        zone:
        - ap-southeast-4a
        - ap-southeast-4b
        - ap-southeast-4c
      ap-southeast-3:
        description: Asia Pacific (Jakarta)
        location:
          display: Jakarta
          latitude: -6.175247
          longitude: 106.8270488
        zone:
        - ap-southeast-3a
        - ap-southeast-3b
        - ap-southeast-3c
      eu-south-2:
        description: Europe (Spain)
        location:
          display: Spain
          latitude: 39.3260685
          longitude: -4.8379791
        zone:
        - eu-south-2a
        - eu-south-2b
        - eu-south-2c
      me-central-1:
        description: Middle East (UAE)
        location:
          display: UAE
          latitude: 24.0002488
          longitude: 53.9994829
        zone:
        - me-central-1a
        - me-central-1b
        - me-central-1c
      ca-west-1:
        description: Canada West (Calgary)
        location:
          display: Calgary
          latitude: 51.0456064
          longitude: -114.057541
        zone:
        - ca-west-1a
        - ca-west-1b
        - ca-west-1c
  azure:
    description: Microsoft Azure
    driver: azure-driver-v1.0.so
    region:
      australiacentral:
        description: Australia Central
        location:
          display: Australia Central
          latitude: -35.3075
          longitude: 149.1244
        zone: []
      australiaeast:
        description: Australia East
        location:
          display: Australia East
          latitude: -33.86
          longitude: 151.2094
        zone:
        - '1'
        - '2'
        - '3'
      australiasoutheast:
        description: Australia Southeast
        location:
          display: Australia Southeast
          latitude: -37.8136
          longitude: 144.9631
        zone: []
      brazilsouth:
        description: Brazil South
        location:
          display: Brazil South
          latitude: -23.55
          longitude: -46.633
        zone:
        - '1'
        - '2'
        - '3'
      canadacentral:
        description: Canada Central
        location:
          display: Canada Central
          latitude: 43.653
          longitude: -79.383
        zone:
        - '1'
        - '2'
        - '3'
      canadaeast:
        description: Canada East
        location:
          display: Canada East
          latitude: 46.817
          longitude: -71.217
        zone: []
      centralindia:
        description: Central India
        location:
          display: Central India
          latitude: 18.5822
          longitude: 73.9197
        zone:
        - '1'
        - '2'
        - '3'
      centralus:
        description: Central US
        location:
          display: Central US
          latitude: 41.5908
          longitude: -93.6208
        zone:
        - '1'
        - '2'
        - '3'
      eastasia:
        description: East Asia
        location:
          display: East Asia
          latitude: 22.267
          longitude: 114.188
        zone:
        - '1'
        - '2'
        - '3'
      eastus:
        description: East US
        location:
          display: East US
          latitude: 37.3719
          longitude: -79.8164
        zone:
        - '1'
        - '2'
        - '3'
      eastus2:
        description: East US 2
        location:
          display: East US 2
          latitude: 36.6681
          longitude: -78.3889
        zone:
        - '1'
        - '2'
        - '3'
      francecentral:
        description: France Central
        location:
          display: France Central
          latitude: 46.3772
          longitude: 2.373
        zone:
        - '1'
        - '2'
        - '3'
      germanywestcentral:
        description: Germany West Central
        location:
          display: Germany West Central
          latitude: 50.1109
          longitude: 8.6821
        zone:
        - '1'
        - '2'
        - '3'
      japaneast:
        description: Japan East
        location:
          display: Japan East
          latitude: 35.68
          longitude: 139.77
        zone:
        - '1'
        - '2'
        - '3'
      japanwest:
        description: Japan West
        location:
          display: Japan West
          latitude: 34.6939
          longitude: 135.5022
        zone:
        - '1'
        - '2'
        - '3'
      koreacentral:
        description: Korea Central
        location:
          display: Korea Central
          latitude: 37.5665
          longitude: 126.978
        zone:
        - '1'
        - '2'
        - '3'
      koreasouth:
        description: Korea South
        location:
          display: Korea South
          latitude: 35.1796
          longitude: 129.0756
        zone: []
      northcentralus:
        description: North Central US
        location:
          display: North Central US
          latitude: 41.8819
          longitude: -87.6278
        zone: []
      northeurope:
        description: North Europe
        location:
          display: North Europe
          latitude: 53.3478
          longitude: -6.2597
        zone:
        - '1'
        - '2'
        - '3'
      norwayeast:
        description: Norway East
        location:
          display: Norway East
          latitude: 59.9139
          longitude: 10.7522
        zone:
        - '1'
        - '2'
        - '3'
      southafricanorth:
        description: South Africa North
        location:
          display: South Africa North
          latitude: -25.7313
          longitude: 28.2184
        zone:
        - '1'
        - '2'
        - '3'
      southcentralus:
        description: South Central US
        location:
          display: South Central US
          latitude: 29.4167
          longitude: -98.5
        zone:
        - '1'
        - '2'
        - '3'
      southeastasia:
        description: Southeast Asia
        location:
          display: Southeast Asia
          latitude: 1.283
          longitude: 103.833
        zone:
        - '1'
        - '2'
        - '3'
      southindia:
        description: South India
        location:
          display: South India
          latitude: 12.9822
          longitude: 80.1636
        zone: []
      switzerlandnorth:
        description: Switzerland North
        location:
          display: Switzerland North
          latitude: 47.4515
          longitude: 8.5646
        zone:
        - '1'
        - '2'
        - '3'
      uaenorth:
        description: UAE North
        location:
          display: UAE North
          latitude: 25.2667
          longitude: 55.3167
        zone:
        - '1'
        - '2'
        - '3'
      uksouth:
        description: UK South
        location:
          display: UK South
          latitude: 50.941
          longitude: -0.799
        zone:
        - '1'
        - '2'
        - '3'
      ukwest:
        description: UK West
        location:
          display: UK West
          latitude: 53.427
          longitude: -3.084
        zone: []
      westcentralus:
        description: West Central US
        location:
          display: West Central US
          latitude: 40.89
          longitude: -110.234
        zone: []
      westeurope:
        description: West Europe
        location:
          display: West Europe
          latitude: 52.3667
          longitude: 4.9
        zone:
        - '1'
        - '2'
        - '3'
      westindia:
        description: West India
        location:
          display: West India
          latitude: 19.088
          longitude: 72.868
        zone: []
      westus:
        description: West US
        location:
          display: West US
          latitude: 37.783
          longitude: -122.417
        zone: []
      westus2:
        description: West US 2
        location:
          display: West US 2
          latitude: 47.233
          longitude: -119.852
        zone:
        - '1'
        - '2'
        - '3'
      israelcentral:
        description: israel central
        location:
          display: israel central
          latitude: 30.8124247
          longitude: 34.8594762
        zone:
        - '1'
        - '2'
        - '3'
      swedencentral:
        description: sweden central
        location:
          display: sweden central
          latitude: 59.6749712
          longitude: 14.5208584
        zone:
        - '1'
        - '2'
        - '3'
      # eastus2euap:
      #  description: East US 2 EUAP (Early Updates Access Program) - DR region (No
      #    VM support)
      #  location:
      #    display: East US 2 EUAP
      #    latitude: 36.6781
      #    longitude: -78.3789
      #  zone:
      #  - '1'
      #  - '2'
      #  - '3'
      # brazilus:
      #  description: brazilus - DR region (No VM support)
      #  location:
      #    display: brazilus
      #    latitude: -10.3333333
      #    longitude: -53.2
      #  zone: []
      qatarcentral:
        description: qatar central
        location:
          display: qatar central
          latitude: 25.3336984
          longitude: 51.2295295
        zone:
        - '1'
        - '2'
        - '3'
      jioindiawest:
        description: Jio India West
        location:
          display: Jio India West
          latitude: 19.86858
          longitude: 73.10469
        zone: []
      # jioindiacentral:
      #  description: Jio India Central - DR region (No VM support)
      #  location:
      #    display: Jio India Central
      #    latitude: 13.00284
      #    longitude: 77.59155
      #  zone: []
      italynorth:
        description: Lombardy Italy
        location:
          display: Lombardy Italy
          latitude: 45.47621
          longitude: 9.84473
        zone:
        - '1'
        - '2'
        - '3'
      westus3:
        description: westus3
        location:
          display: Arizona USA
          latitude: 33.90304
          longitude: -112.01002
        zone:
        - '1'
        - '2'
        - '3'
      polandcentral:
        description: polandcentral
        location:
          display: Poland Central
          latitude: 52.20793
          longitude: 19.59488
        zone:
        - '1'
        - '2'
        - '3'
      # eastusstg:
      #  description: East US STG - DR region (No VM support)
      #  location:
      #    display: East US STG
      #    latitude: 37.3719
      #    longitude: -79.8164
      #  zone: []
      # centraluseuap:
      #  description: Central US 2 EUAP (Early Updates Access Program) - DR region
      #    (No VM support)
      #  location:
      #    display: Central US 2 EUAP
      #    latitude: 41.5908
      #    longitude: -93.6208
      #  zone: []
      spaincentral:
        desc: Spain Central
        location:
          display: Madrid
          latitude: 40.4259
          longitude: 3.4209
        zone:
        - '1'
        - '2'
        - '3'
      mexicocentral:
        desc: Mexico Central
        location:
          display: Mexico
          latitude: 20.588818
          longitude: -100.389888
        zone:
        - '1'
        - '2'
        - '3'
      chilecentral:
        desc: Chile Central
        location:
          display: Santiago, Chile
          latitude: -33.4378
          longitude: -70.6504
        zone:
        - '1'
        - '2'
        - '3'
      indonesiacentral:
        desc: Indonesia Central
        location:
          display: Jakarta, Indonesia
          latitude: -6.2088
          longitude: 106.8456
        zone:
        - '1'
        - '2'
        - '3'
      malaysiawest:
        desc: Malaysia West
        location:
          display: Kuala Lumpur, Malaysia
          latitude: 3.139
          longitude: 101.6869
        zone:
        - '1'
        - '2'
        - '3'
      austriaeast:
        desc: Austria East
        location:
          display: Vienna, Austria
          latitude: 48.2082
          longitude: 16.3738
        zone:
        - '1'
        - '2'
        - '3'
      newzealandnorth:
        desc: New Zealand North
        location:
          display: Auckland, New Zealand
          latitude: -36.8485
          longitude: 174.7633
        zone:
        - '1'
        - '2'
        - '3'
      # australiacentral2:
      #  desc: ''
      #  location:
      #    display: ''
      #    latitude: null
      #    longitude: null
      #  zone: []
      #  description: australiacentral2 - DR region (No VM support)
      # switzerlandwest:
      #  desc: ''
      #  location:
      #    display: ''
      #    latitude: null
      #    longitude: null
      #  zone: []
      #  description: switzerlandwest - DR region (No VM support)
      # francesouth:
      #  desc: ''
      #  location:
      #    display: ''
      #    latitude: null
      #    longitude: null
      #  zone: []
      #  description: francesouth - DR region (No VM support)
      # uaecentral:
      #  desc: ''
      #  location:
      #    display: ''
      #    latitude: null
      #    longitude: null
      #  zone: []
      #  description: uaecentral - DR region (No VM support)
      # southafricawest:
      #  desc: ''
      #  location:
      #    display: ''
      #    latitude: null
      #    longitude: null
      #  zone: []
      #  description: southafricawest - DR region (No VM support)
      # germanynorth:
      #  desc: ''
      #  location:
      #    display: ''
      #    latitude: null
      #    longitude: null
      #  zone: []
      #  description: germanynorth - DR region (No VM support)
      # brazilsoutheast:
      #  desc: ''
      #  location:
      #    display: ''
      #    latitude: null
      #    longitude: null
      #  zone: []
      #  description: brazilsoutheast - DR region (No VM support)
      # norwaywest:
      #  desc: ''
      #  location:
      #    display: ''
      #    latitude: null
      #    longitude: null
      #  zone: []
      #  description: norwaywest - DR region (No VM support)
  gcp:
    description: Google Cloud Platform
    driver: gcp-driver-v1.0.so
    link:
    - https://cloud.google.com/compute/docs/regions-zones
    region:
      asia-east1:
        description: Changhua County Taiwan
        location:
          display: Changhua County Taiwan
          latitude: 24.0756
          longitude: 120.5451
        zone:
        - asia-east1-a
        - asia-east1-b
        - asia-east1-c
      asia-east2:
        description: Hong Kong
        location:
          display: Hong Kong
          latitude: 22.3964
          longitude: 114.1095
        zone:
        - asia-east2-a
        - asia-east2-b
        - asia-east2-c
      asia-northeast1:
        description: Tokyo Japan
        location:
          display: Japan (Tokyo)
          latitude: 35.6896
          longitude: 139.6917
        zone:
        - asia-northeast1-a
        - asia-northeast1-b
        - asia-northeast1-c
      asia-northeast2:
        description: Osaka Japan
        location:
          display: Osaka Japan
          latitude: 34.6937
          longitude: 135.5022
        zone:
        - asia-northeast2-a
        - asia-northeast2-b
        - asia-northeast2-c
      asia-northeast3:
        description: Seoul South Korea
        location:
          display: South Korea (Seoul)
          latitude: 37.2
          longitude: 127.0
        zone:
        - asia-northeast3-a
        - asia-northeast3-b
        - asia-northeast3-c
      asia-south1:
        description: Mumbai India
        location:
          display: India (Mumbai)
          latitude: 19.0761
          longitude: 72.8774
        zone:
        - asia-south1-a
        - asia-south1-b
        - asia-south1-c
      asia-southeast1:
        description: Jurong West Singapore
        location:
          display: Singapore
          latitude: 1.3409
          longitude: 103.7041
        zone:
        - asia-southeast1-a
        - asia-southeast1-b
        - asia-southeast1-c
      asia-southeast2:
        description: Jakarta Indonesia
        location:
          display: Jakarta Indonesia
          latitude: -6.201
          longitude: 106.816
        zone:
        - asia-southeast2-a
        - asia-southeast2-b
        - asia-southeast2-c
      australia-southeast1:
        description: Sydney Australia
        location:
          display: Australia (Sydney)
          latitude: -33.8651
          longitude: 151.2099
        zone:
        - australia-southeast1-a
        - australia-southeast1-b
        - australia-southeast1-c
      europe-central2:
        description: Warsaw Poland
        location:
          display: Warsaw Poland
          latitude: 52.237049
          longitude: 21.017532
        zone:
        - europe-central2-a
        - europe-central2-b
        - europe-central2-c
      europe-north1:
        description: Hamina Finland
        location:
          display: Hamina Finland
          latitude: 60.57
          longitude: 27.2
        zone:
        - europe-north1-a
        - europe-north1-b
        - europe-north1-c
      europe-west1:
        description: St. Ghislain Belgium
        location:
          display: St. Ghislain Belgium
          latitude: 50.4482
          longitude: 3.8189
        zone:
        - europe-west1-b
        - europe-west1-c
        - europe-west1-d
      europe-west2:
        description: London England  UK
        location:
          display: UK (London)
          latitude: 51.5099
          longitude: -0.1181
        zone:
        - europe-west2-a
        - europe-west2-b
        - europe-west2-c
      europe-west3:
        description: Frankfurt Germany
        location:
          display: Germany (Frankfurt)
          latitude: 50.1109
          longitude: 8.6831
        zone:
        - europe-west3-a
        - europe-west3-b
        - europe-west3-c
      europe-west4:
        description: Eemshaven Netherlands
        location:
          display: Eemshaven Netherlands
          latitude: 53.4423
          longitude: 6.8253
        zone:
        - europe-west4-a
        - europe-west4-b
        - europe-west4-c
      europe-west6:
        description: Zurich Switzerland
        location:
          display: Zurich Switzerland
          latitude: 47.3667
          longitude: 8.55
        zone:
        - europe-west6-a
        - europe-west6-b
        - europe-west6-c
      northamerica-northeast1:
        description: Montreal Quebec Canada
        location:
          display: Montreal Quebec Canada
          latitude: 45.5089
          longitude: -73.5617
        zone:
        - northamerica-northeast1-a
        - northamerica-northeast1-b
        - northamerica-northeast1-c
      southamerica-east1:
        description: Osasco (Sao Paulo)  Brazil
        location:
          display: Brazil (Sao Paulo)
          latitude: -23.5325
          longitude: -46.7917
        zone:
        - southamerica-east1-a
        - southamerica-east1-b
        - southamerica-east1-c
      us-central1:
        description: Council Bluffs Iowa  USA
        location:
          display: Council Bluffs Iowa USA
          latitude: 41.2522
          longitude: -95.8575
        zone:
        - us-central1-a
        - us-central1-b
        - us-central1-c
        - us-central1-f
      us-east1:
        description: Moncks Corner South Carolina USA
        location:
          display: Moncks Corner South Carolina USA
          latitude: 33.1913
          longitude: -80.004
        zone:
        - us-east1-b
        - us-east1-c
        - us-east1-d
      us-east4:
        description: Ashburn Northern Virginia USA
        location:
          display: USA (Virginia)
          latitude: 39.0403
          longitude: -77.4852
        zone:
        - us-east4-a
        - us-east4-b
        - us-east4-c
      us-west1:
        description: Dalles Oregon USA
        location:
          display: The Dalles Oregon USA
          latitude: 45.5946
          longitude: -121.1787
        zone:
        - us-west1-a
        - us-west1-b
        - us-west1-c
      us-west2:
        description: LA California USA
        location:
          display: Los Angeles California USA
          latitude: 34.0522
          longitude: -118.2437
        zone:
        - us-west2-a
        - us-west2-b
        - us-west2-c
      us-west3:
        description: Salt Lake City Utah USA
        location:
          display: Salt Lake City Utah USA
          latitude: 40.7587
          longitude: -111.8762
        zone:
        - us-west3-a
        - us-west3-b
        - us-west3-c
      us-west4:
        description: Las Vegas USA
        location:
          display: Las Vegas Nevada USA
          latitude: 36.1146
          longitude: -115.1728
        zone:
        - us-west4-a
        - us-west4-b
        - us-west4-c
      europe-southwest1:
        description: Madrid, Spain, Europe
        location:
          display: Madrid, Spain, Europe
          latitude: 40.4167047
          longitude: -3.7035825
        zone:
        - europe-southwest1-a
        - europe-southwest1-b
        - europe-southwest1-c
      europe-west8:
        description: Milan, Italy, Europe
        location:
          display: Milan, Italy, Europe
          latitude: 45.4641943
          longitude: 9.1896346
        zone:
        - europe-west8-a
        - europe-west8-b
        - europe-west8-c
      me-central2:
        description: Dammam, Saudi Arabia, Middle East
        location:
          display: Dammam, Saudi Arabia, Middle East
          latitude: 26.4367824
          longitude: 50.1039991
        zone:
        - me-central2-a
        - me-central2-b
        - me-central2-c
      europe-west12:
        description: Turin, Italy, Europe
        location:
          display: Turin, Italy, Europe
          latitude: 45.0677551
          longitude: 7.6824892
        zone:
        - europe-west12-a
        - europe-west12-b
        - europe-west12-c
      me-central1:
        description: Doha, Qatar, Middle East
        location:
          display: Doha, Qatar, Middle East
          latitude: 25.2856329
          longitude: 51.5264162
        zone:
        - me-central1-a
        - me-central1-b
        - me-central1-c
      northamerica-northeast2:
        description: Toronto, Ontario, North America
        location:
          display: Toronto, Ontario, North America
          latitude: 43.6534817
          longitude: -79.3839347
        zone:
        - northamerica-northeast2-a
        - northamerica-northeast2-b
        - northamerica-northeast2-c
      us-south1:
        description: Dallas, Texas, North America
        location:
          display: Dallas, Texas, North America
          latitude: 32.7762719
          longitude: -96.7968559
        zone:
        - us-south1-a
        - us-south1-b
        - us-south1-c
      australia-southeast2:
        description: Melbourne, Australia, APAC
        location:
          display: Melbourne, Australia, APAC
          latitude: -37.8142454
          longitude: 144.9631732
        zone:
        - australia-southeast2-a
        - australia-southeast2-b
        - australia-southeast2-c
      europe-west9:
        description: Paris, France, Europe
        location:
          display: Paris, France, Europe
          latitude: 48.8588897
          longitude: 2.32004102
        zone:
        - europe-west9-a
        - europe-west9-b
        - europe-west9-c
      africa-south1:
        description: Johannesburg, South Africa
        location:
          display: Johannesburg, South Africa
          latitude: -26.205
          longitude: 28.049722
        zone:
        - africa-south1-a
        - africa-south1-b
        - africa-south1-c
      asia-south2:
        description: Delhi, India, APAC
        location:
          display: Delhi, India, APAC
          latitude: 28.6273928
          longitude: 77.1716954
        zone:
        - asia-south2-a
        - asia-south2-b
        - asia-south2-c
      southamerica-west1:
        description: Santiago, Chile, South America
        location:
          display: Santiago, Chile, South America
          latitude: -33.4377756
          longitude: -70.6504502
        zone:
        - southamerica-west1-a
        - southamerica-west1-b
        - southamerica-west1-c
      me-west1:
        description: Tel Aviv, Israel, Middle East
        location:
          display: Tel Aviv, Israel, Middle East
          latitude: 32.0956658
          longitude: 34.8062567
        zone:
        - me-west1-a
        - me-west1-b
        - me-west1-c
      us-east5:
        description: Columbus, Ohio, North America
        location:
          display: Columbus, Ohio, North America
          latitude: 39.9622601
          longitude: -83.0007065
        zone:
        - us-east5-a
        - us-east5-b
        - us-east5-c
      europe-west10:
        description: Berlin, Germany, Europe
        location:
          display: Berlin, Germany, Europe
          latitude: 52.5170365
          longitude: 13.3888599
        zone:
        - europe-west10-a
        - europe-west10-b
        - europe-west10-c
      northamerica-south1:
        desc: Mexico City, Mexico
        location:
          display: Mexico City, Mexico
          latitude: 19.4326
          longitude: -99.1332
        zone:
        - northamerica-south1-a
        - northamerica-south1-b
        - northamerica-south1-c
      europe-north2:
        desc: Stockholm, Sweden
        location:
          display: Stockholm, Sweden
          latitude: 59.3293
          longitude: 18.0686
        zone:
        - europe-north2-a
        - europe-north2-b
        - europe-north2-c
  ibm:
    description: IBM Cloud
    driver: ibm-driver-v1.0.so
    region:
      au-syd:
        description: Sydney (Australia)
        location:
          display: Australia (Sydney)
          latitude: -33.86882
          longitude: 151.209296
        zone:
        - au-syd-1
        - au-syd-2
        - au-syd-3
      br-sao:
        description: Sao Paulo (Brazil)
        location:
          display: Brazil (Sao Paulo)
          latitude: -23.55052
          longitude: -46.633309
        zone:
        - br-sao-1
        - br-sao-2
        - br-sao-3
      ca-tor:
        description: Toronto (Canada)
        location:
          display: Toronto (Canada)
          latitude: 43.655226
          longitude: -79.383184
        zone:
        - ca-tor-1
        - ca-tor-2
        - ca-tor-3
      eu-de:
        description: Frankfurt (Germany)
        location:
          display: Germany (Frankfurt)
          latitude: 50.110722
          longitude: 8.682127
        zone:
        - eu-de-1
        - eu-de-2
        - eu-de-3
      eu-gb:
        description: London (United Kingdom)
        location:
          display: UK (London)
          latitude: 51.507351
          longitude: -0.127758
        zone:
        - eu-gb-1
        - eu-gb-2
        - eu-gb-3
      jp-osa:
        description: Osaka (Japan)
        location:
          display: Osaka (Japan)
          latitude: 34.693738
          longitude: 135.502165
        zone:
        - jp-osa-1
        - jp-osa-2
        - jp-osa-3
      jp-tok:
        description: Tokyo (Japan)
        location:
          display: Japan (Tokyo)
          latitude: 35.689588
          longitude: 139.691706
        zone:
        - jp-tok-1
        - jp-tok-2
        - jp-tok-3
      us-east:
        description: Washington DC (US East)
        location:
          display: Washington DC (US East)
          latitude: 38.907192
          longitude: -77.036871
        zone:
        - us-east-1
        - us-east-2
        - us-east-3
      us-south:
        description: us-south
        location:
          display: Dallas USA
          latitude: 32.81248
          longitude: -96.77619
        zone:
        - us-south-1
        - us-south-2
        - us-south-3
      eu-es:
        description: eu-es
        location:
          display: Madrid Spain
          latitude: 40.42695
          longitude: -3.70872
        zone:
        - eu-es-1
        - eu-es-2
        - eu-es-3
      ca-mon:
        desc: Montreal, Quebec, Canada
        location:
          display: Montreal, Quebec, Canada
          latitude: 45.5089
          longitude: -73.5617
        zone:
        - ca-mon-1
        - ca-mon-2
        - ca-mon-3
  kt:
    description: KT Cloud (VPC)
    driver: kt-driver-v1.0.so
    region:
      KR1:
        id: KR1
        description: Mok-dong - Seoul (South Korea)
        location:
          display: Mok-dong - Seoul (South Korea)
          latitude: 37.536726
          longitude: 126.874278
        zone:
        - DX-M1
  ncp:
    description: Naver Cloud Platform (VPC)
    driver: ncp-driver-v1.0.so
    region:
      KR:
        id: KR
        description: Korea 1
        location:
          display: Seoul(Gasan) / Pyeongchon (South Korea)
          latitude: 37.4754
          longitude: 126.8831
        zone:
        - KR-1
        - KR-2
      SGN:
        id: SGN
        description: Singapore
        location:
          display: Singapore
          latitude: 1.3402
          longitude: 103.7041
        zone:
        - SGN-4
        - SGN-5
      JPN:
        id: JPN
        description: Japan
        location:
          display: Japan
          latitude: 35.51742
          longitude: 136.80291
        zone:
        - JPN-4
        - JPN-5
  nhn:
    description: NHN Cloud
    driver: nhn-driver-v1.0.so
    region:
      KR1:
        id: KR1
        description: Pangyo (South Korea)
        location:
          display: Pangyo (South Korea)
          latitude: 37.390889
          longitude: 127.096792
        zone:
        - kr-pub-a
        - kr-pub-b
      KR2:
        id: KR2
        description: Pyeongchon (South Korea)
        location:
          display: Pyeongchon (South Korea)
          latitude: 37.392584
          longitude: 126.95145
        zone:
        - kr2-pub-a
        - kr2-pub-b
      JP1:
        id: JP1
        description: Tokyo (Japan)
        location:
          display: Tokyo (Japan)
          latitude: 35.412
          longitude: 139.423
        zone:
        - jp-pub-a
        - jp-pub-b
      US1:
        id: US1      
        desc: US West (California)
        location:
          display: California, USA
          latitude: 37.7749
          longitude: -122.4194
        zone:
        - us-pub-a
  openstack:
    description: OpenStack
    driver: openstack-driver-v1.0.so
    region:
      regionone:
        description: Korea Daejeon (Internal)
        location:
          display: South Korea (Daejeon)
          latitude: 36.3804
          longitude: 127.365
        zone: []
  tencent:
    description: Tencent Cloud
    driver: tencent-driver-v1.0.so
    region:
      ap-bangkok:
        description: Bangkok
        location:
          display: Southeast Asia (Bangkok)
          latitude: 13.756331
          longitude: 100.501765
        zone:
        - ap-bangkok-1
        - ap-bangkok-2
      ap-beijing:
        description: Beijing
        location:
          display: North China (Beijing)
          latitude: 39.9042
          longitude: 116.407396
        zone:
        - ap-beijing-3
        - ap-beijing-6
        - ap-beijing-7
        - ap-beijing-8
      ap-chengdu:
        description: Chengdu
        location:
          display: Southwest China (Chengdu)
          latitude: 30.572815
          longitude: 104.066801
        zone:
        - ap-chengdu-1
      ap-chongqing:
        description: Chongqing
        location:
          display: Southwest China (Chongqing)
          latitude: 29.431586
          longitude: 106.912251
        zone:
        - ap-chongqing-1
      ap-guangzhou:
        description: Guangzhou
        location:
          display: South China (Guangzhou)
          latitude: 23.12911
          longitude: 113.264385
        zone:
        - ap-guangzhou-6
        - ap-guangzhou-7
      ap-hongkong:
        description: HongKong
        location:
          display: Hong Kong
          latitude: 22.396228
          longitude: 114.108497
        zone:
        - ap-hongkong-2
        - ap-hongkong-3
      ap-jakarta:
        description: Jakarta
        location:
          display: Southeast Asia (Jakarta)
          latitude: -6.17511
          longitude: 106.865036
        zone:
        - ap-jakarta-1
        - ap-jakarta-2
      ap-mumbai:
        description: Mumbai
        location:
          display: India (Mumbai)
          latitude: 19.075983
          longitude: 72.877655
        zone:
        - ap-mumbai-1
        - ap-mumbai-2
      ap-nanjing:
        description: Nanjing
        location:
          display: East China (Nanjing)
          latitude: 32.060255
          longitude: 118.796877
        zone:
        - ap-nanjing-1
        - ap-nanjing-3
      ap-seoul:
        description: Seoul
        location:
          display: South Korea (Seoul)
          latitude: 37.566536
          longitude: 126.977966
        zone:
        - ap-seoul-1
        - ap-seoul-2
      ap-shanghai:
        description: Shanghai
        location:
          display: East China (Shanghai)
          latitude: 31.23039
          longitude: 121.473702
        zone:
        - ap-shanghai-2
        - ap-shanghai-5
        - ap-shanghai-8
      ap-singapore:
        description: Singapore
        location:
          display: Singapore
          latitude: 1.352083
          longitude: 103.819839
        zone:
        - ap-singapore-1
        - ap-singapore-2
        - ap-singapore-3
        - ap-singapore-4
      ap-tokyo:
        description: Tokyo
        location:
          display: Japan (Tokyo)
          latitude: 35.689487
          longitude: 139.691711
        zone:
        - ap-tokyo-1
        - ap-tokyo-2
      eu-frankfurt:
        description: Frankfurt
        location:
          display: Germany (Frankfurt)
          latitude: 50.110922
          longitude: 8.682127
        zone:
        - eu-frankfurt-1
        - eu-frankfurt-2
      eu-moscow:
        description: Moscow
        location:
          display: Europe (Moscow)
          latitude: 55.755826
          longitude: 37.6173
        zone: []
      na-ashburn:
        description: Virginia
        location:
          display: USA (Virginia)
          latitude: 37.431573
          longitude: -78.656894
        zone:
        - na-ashburn-1
        - na-ashburn-2
      na-siliconvalley:
        description: SiliconValley
        location:
          display: Western US (Silicon Valley)
          latitude: 37.387474
          longitude: -122.057543
        zone:
        - na-siliconvalley-1
        - na-siliconvalley-2
      na-toronto:
        description: Toronto
        location:
          display: North America (Toronto)
          latitude: 43.653226
          longitude: -79.383184
        zone:
        - na-toronto-1
      sa-saopaulo:
        description: Sao Paulo
        location:
          display: Sao Paulo
          latitude: -23.55398
          longitude: -46.64681
        zone:
        - sa-saopaulo-1
